[
  {
    "name": "Afghanistan",
    "alpha2": "AF",
    "alpha3": "AFG",
    "capital": "Kabul",
    "latitude": 34.5553,
    "longitude": 69.2075,
    "continent": "Asia",
    "population": 42239854,
    "area": 652230.0
  },
  {
    "name": "Albania",
    "alpha2": "AL",
    "alpha3": "ALB",
    "capital": "Tirana",
    "latitude": 41.3275,
    "longitude": 19.8187,
    "continent": "Europe",
    "population": 2745972,
    "area": 28748.0
  },
  {
    "name": "Algeria",
    "alpha2": "DZ",
    "alpha3": "DZA",
    "capital": "Algiers",
    "latitude": 36.7538,
    "longitude": 3.0588,
    "continent": "Africa",
    "population": 45606480,
    "area": 2381741.0
  },
  {
    "name": "Andorra",
    "alpha2": "AD",
    "alpha3": "AND",
    "capital": "Andorra la Vella",
    "latitude": 42.5063,
    "longitude": 1.5218,
    "continent": "Europe",
    "population": 80088,
    "area": 468.0
  },
  {
    "name": "Angola",
    "alpha2": "AO",
    "alpha3": "AGO",
    "capital": "Luanda",
    "latitude": -8.8390,
    "longitude": 13.2894,
    "continent": "Africa",
    "population": 36684202,
    "area": 1246700.0
  },
  {
    "name": "Antigua and Barbuda",
    "alpha2": "AG",
    "alpha3": "ATG",
    "capital": "St. John's",
    "latitude": 17.1274,
    "longitude": -61.8468,
    "continent": "North America",
    "population": 100772,
    "area": 442.0
  },
  {
    "name": "Argentina",
    "alpha2": "AR",
    "alpha3": "ARG",
    "capital": "Buenos Aires",
    "latitude": -34.6037,
    "longitude": -58.3816,
    "continent": "South America",
    "population": 46654581,
    "area": 2780400.0
  },
  {
    "name": "Armenia",
    "alpha2": "AM",
    "alpha3": "ARM",
    "capital": "Yerevan",
    "latitude": 40.1792,
    "longitude": 44.4991,
    "continent": "Asia",
    "population": 2777970,
    "area": 29743.0
  },
  {
    "name": "Australia",
    "alpha2": "AU",
    "alpha3": "AUS",
    "capital": "Canberra",
    "latitude": -35.2809,
    "longitude": 149.1300,
    "continent": "Oceania",
    "population": 26473055,
    "area": 7692024.0
  },
  {
    "name": "Austria",
    "alpha2": "AT",
    "alpha3": "AUT",
    "capital": "Vienna",
    "latitude": 48.2082,
    "longitude": 16.3738,
    "continent": "Europe",
    "population": 9104772,
    "area": 83871.0
  },
  {
    "name": "Azerbaijan",
    "alpha2": "AZ",
    "alpha3": "AZE",
    "capital": "Baku",
    "latitude": 40.4093,
    "longitude": 49.8671,
    "continent": "Asia",
    "population": 10145212,
    "area": 86600.0
  },
  {
    "name": "Bahamas",
    "alpha2": "BS",
    "alpha3": "BHS",
    "capital": "Nassau",
    "latitude": 25.0480,
    "longitude": -77.3554,
    "continent": "North America",
    "population": 412623,
    "area": 13943.0
  },
  {
    "name": "Bahrain",
    "alpha2": "BH",
    "alpha3": "BHR",
    "capital": "Manama",
    "latitude": 26.2285,
    "longitude": 50.5860,
    "continent": "Asia",
    "population": 1485509,
    "area": 765.0
  },
  {
    "name": "Bangladesh",
    "alpha2": "BD",
    "alpha3": "BGD",
    "capital": "Dhaka",
    "latitude": 23.8103,
    "longitude": 90.4125,
    "continent": "Asia",
    "population": 172954319,
    "area": 147570.0
  },
  {
    "name": "Barbados",
    "alpha2": "BB",
    "alpha3": "BRB",
    "capital": "Bridgetown",
    "latitude": 13.0969,
    "longitude": -59.6145,
    "continent": "North America",
    "population": 281995,
    "area": 430.0
  },
  {
    "name": "Belarus",
    "alpha2": "BY",
    "alpha3": "BLR",
    "capital": "Minsk",
    "latitude": 53.9006,
    "longitude": 27.5590,
    "continent": "Europe",
    "population": 9200617,
    "area": 207600.0
  },
  {
    "name": "Belgium",
    "alpha2": "BE",
    "alpha3": "BEL",
    "capital": "Brussels",
    "latitude": 50.8503,
    "longitude": 4.3517,
    "continent": "Europe",
    "population": 11686140,
    "area": 30528.0
  },
  {
    "name": "Belize",
    "alpha2": "BZ",
    "alpha3": "BLZ",
    "capital": "Belmopan",
    "latitude": 17.2510,
    "longitude": -88.7590,
    "continent": "North America",
    "population": 410825,
    "area": 22966.0
  },
  {
    "name": "Benin",
    "alpha2": "BJ",
    "alpha3": "BEN",
    "capital": "Porto-Novo",
    "latitude": 6.4969,
    "longitude": 2.6289,
    "continent": "Africa",
    "population": 13352864,
    "area": 112622.0
  },
  {
    "name": "Bhutan",
    "alpha2": "BT",
    "alpha3": "BTN",
    "capital": "Thimphu",
    "latitude": 27.4728,
    "longitude": 89.6393,
    "continent": "Asia",
    "population": 782455,
    "area": 38394.0
  },
  {
    "name": "Bolivia",
    "alpha2": "BO",
    "alpha3": "BOL",
    "capital": "Sucre",
    "latitude": -19.0196,
    "longitude": -65.2619,
    "continent": "South America",
    "population": 12388571,
    "area": 1098581.0
  },
  {
    "name": "Bosnia and Herzegovina",
    "alpha2": "BA",
    "alpha3": "BIH",
    "capital": "Sarajevo",
    "latitude": 43.8564,
    "longitude": 18.4131,
    "continent": "Europe",
    "population": 3210847,
    "area": 51197.0
  },
  {
    "name": "Botswana",
    "alpha2": "BW",
    "alpha3": "BWA",
    "capital": "Gaborone",
    "latitude": -24.6282,
    "longitude": 25.9231,
    "continent": "Africa",
    "population": 2630296,
    "area": 581730.0
  },
  {
    "name": "Brazil",
    "alpha2": "BR",
    "alpha3": "BRA",
    "capital": "Brasilia",
    "latitude": -15.7975,
    "longitude": -47.8919,
    "continent": "South America",
    "population": 216422446,
    "area": 8515767.0
  },
  {
    "name": "Brunei",
    "alpha2": "BN",
    "alpha3": "BRN",
    "capital": "Bandar Seri Begawan",
    "latitude": 4.9031,
    "longitude": 114.9398,
    "continent": "Asia",
    "population": 449002,
    "area": 5765.0
  },
  {
    "name": "Bulgaria",
    "alpha2": "BG",
    "alpha3": "BGR",
    "capital": "Sofia",
    "latitude": 42.6977,
    "longitude": 23.3219,
    "continent": "Europe",
    "population": 6447710,
    "area": 110879.0
  },
  {
    "name": "Burkina Faso",
    "alpha2": "BF",
    "alpha3": "BFA",
    "capital": "Ouagadougou",
    "latitude": 12.3714,
    "longitude": -1.5197,
    "continent": "Africa",
    "population": 22673762,
    "area": 274200.0
  },
  {
    "name": "Burundi",
    "alpha2": "BI",
    "alpha3": "BDI",
    "capital": "Gitega",
    "latitude": -3.4264,
    "longitude": 29.9246,
    "continent": "Africa",
    "population": 13238559,
    "area": 27834.0
  },
  {
    "name": "Cabo Verde",
    "alpha2": "CV",
    "alpha3": "CPV",
    "capital": "Praia",
    "latitude": 14.9331,
    "longitude": -23.5133,
    "continent": "Africa",
    "population": 598682,
    "area": 4033.0
  },
  {
    "name": "Cambodia",
    "alpha2": "KH",
    "alpha3": "KHM",
    "capital": "Phnom Penh",
    "latitude": 11.5564,
    "longitude": 104.9282,
    "continent": "Asia",
    "population": 16944826,
    "area": 181035.0
  },
  {
    "name": "Cameroon",
    "alpha2": "CM",
    "alpha3": "CMR",
    "capital": "Yaounde",
    "latitude": 3.8480,
    "longitude": 11.5021,
    "continent": "Africa",
    "population": 28647293,
    "area": 475442.0
  },
  {
    "name": "Canada",
    "alpha2": "CA",
    "alpha3": "CAN",
    "capital": "Ottawa",
    "latitude": 45.4215,
    "longitude": -75.6972,
    "continent": "North America",
    "population": 40097761,
    "area": 9984670.0
  },
  {
    "name": "Central African Republic",
    "alpha2": "CF",
    "alpha3": "CAF",
    "capital": "Bangui",
    "latitude": 4.3947,
    "longitude": 18.5582,
    "continent": "Africa",
    "population": 5742315,
    "area": 622984.0
  },
  {
    "name": "Chad",
    "alpha2": "TD",
    "alpha3": "TCD",
    "capital": "N'Djamena",
    "latitude": 12.1348,
    "longitude": 15.0557,
    "continent": "Africa",
    "population": 18278568,
    "area": 1284000.0
  },
  {
    "name": "Chile",
    "alpha2": "CL",
    "alpha3": "CHL",
    "capital": "Santiago",
    "latitude": -33.4489,
    "longitude": -70.6693,
    "continent": "South America",
    "population": 19603733,
    "area": 756102.0
  },
  {
    "name": "China",
    "alpha2": "CN",
    "alpha3": "CHN",
    "capital": "Beijing",
    "latitude": 39.9042,
    "longitude": 116.4074,
    "continent": "Asia",
    "population": 1425671352,
    "area": 9596960.0
  },
  {
    "name": "Colombia",
    "alpha2": "CO",
    "alpha3": "COL",
    "capital": "Bogota",
    "latitude": 4.7110,
    "longitude": -74.0721,
    "continent": "South America",
    "population": 52085168,
    "area": 1141748.0
  },
  {
    "name": "Comoros",
    "alpha2": "KM",
    "alpha3": "COM",
    "capital": "Moroni",
    "latitude": -11.7172,
    "longitude": 43.2551,
    "continent": "Africa",
    "population": 852075,
    "area": 2235.0
  },
  {
    "name": "Congo (Democratic Republic)",
    "alpha2": "CD",
    "alpha3": "COD",
    "capital": "Kinshasa",
    "latitude": -4.4419,
    "longitude": 15.2663,
    "continent": "Africa",
    "population": 102262808,
    "area": 2344858.0
  },
  {
    "name": "Congo (Republic)",
    "alpha2": "CG",
    "alpha3": "COG",
    "capital": "Brazzaville",
    "latitude": -4.2634,
    "longitude": 15.2429,
    "continent": "Africa",
    "population": 6106869,
    "area": 342000.0
  },
  {
    "name": "Costa Rica",
    "alpha2": "CR",
    "alpha3": "CRI",
    "capital": "San Jose",
    "latitude": 9.9281,
    "longitude": -84.0907,
    "continent": "North America",
    "population": 5212173,
    "area": 51100.0
  },
  {
    "name": "Croatia",
    "alpha2": "HR",
    "alpha3": "HRV",
    "capital": "Zagreb",
    "latitude": 45.8150,
    "longitude": 15.9819,
    "continent": "Europe",
    "population": 3855600,
    "area": 56594.0
  },
  {
    "name": "Cuba",
    "alpha2": "CU",
    "alpha3": "CUB",
    "capital": "Havana",
    "latitude": 23.1136,
    "longitude": -82.3666,
    "continent": "North America",
    "population": 11194449,
    "area": 109884.0
  },
  {
    "name": "Cyprus",
    "alpha2": "CY",
    "alpha3": "CYP",
    "capital": "Nicosia",
    "latitude": 35.1856,
    "longitude": 33.3823,
    "continent": "Europe",
    "population": 1260138,
    "area": 9251.0
  },
  {
    "name": "Czech Republic",
    "alpha2": "CZ",
    "alpha3": "CZE",
    "capital": "Prague",
    "latitude": 50.0755,
    "longitude": 14.4378,
    "continent": "Europe",
    "population": 10827529,
    "area": 78867.0
  },
  {
    "name": "Denmark",
    "alpha2": "DK",
    "alpha3": "DNK",
    "capital": "Copenhagen",
    "latitude": 55.6761,
    "longitude": 12.5683,
    "continent": "Europe",
    "population": 5932654,
    "area": 43094.0
  },
  {
    "name": "Djibouti",
    "alpha2": "DJ",
    "alpha3": "DJI",
    "capital": "Djibouti",
    "latitude": 11.5881,
    "longitude": 43.1456,
    "continent": "Africa",
    "population": 1120849,
    "area": 23200.0
  },
  {
    "name": "Dominica",
    "alpha2": "DM",
    "alpha3": "DMA",
    "capital": "Roseau",
    "latitude": 15.3010,
    "longitude": -61.3870,
    "continent": "North America",
    "population": 72737,
    "area": 751.0
  },
  {
    "name": "Dominican Republic",
    "alpha2": "DO",
    "alpha3": "DOM",
    "capital": "Santo Domingo",
    "latitude": 18.4861,
    "longitude": -69.9312,
    "continent": "North America",
    "population": 11228821,
    "area": 48671.0
  },
  {
    "name": "East Timor",
    "alpha2": "TL",
    "alpha3": "TLS",
    "capital": "Dili",
    "latitude": -8.5569,
    "longitude": 125.5603,
    "continent": "Asia",
    "population": 1360596,
    "area": 14874.0
  },
  {
    "name": "Ecuador",
    "alpha2": "EC",
    "alpha3": "ECU",
    "capital": "Quito",
    "latitude": -0.1807,
    "longitude": -78.4678,
    "continent": "South America",
    "population": 18190484,
    "area": 283561.0
  },
  {
    "name": "Egypt",
    "alpha2": "EG",
    "alpha3": "EGY",
    "capital": "Cairo",
    "latitude": 30.0444,
    "longitude": 31.2357,
    "continent": "Africa",
    "population": 112716598,
    "area": 1002450.0
  },
  {
    "name": "El Salvador",
    "alpha2": "SV",
    "alpha3": "SLV",
    "capital": "San Salvador",
    "latitude": 13.6929,
    "longitude": -89.2182,
    "continent": "North America",
    "population": 6364943,
    "area": 21041.0
  },
  {
    "name": "Equatorial Guinea",
    "alpha2": "GQ",
    "alpha3": "GNQ",
    "capital": "Malabo",
    "latitude": 3.7504,
    "longitude": 8.7371,
    "continent": "Africa",
    "population": 1714671,
    "area": 28051.0
  },
  {
    "name": "Eritrea",
    "alpha2": "ER",
    "alpha3": "ERI",
    "capital": "Asmara",
    "latitude": 15.3229,
    "longitude": 38.9251,
    "continent": "Africa",
    "population": 3748901,
    "area": 117600.0
  },
  {
    "name": "Estonia",
    "alpha2": "EE",
    "alpha3": "EST",
    "capital": "Tallinn",
    "latitude": 59.4370,
    "longitude": 24.7536,
    "continent": "Europe",
    "population": 1322765,
    "area": 45228.0
  },
  {
    "name": "Eswatini",
    "alpha2": "SZ",
    "alpha3": "SWZ",
    "capital": "Mbabane",
    "latitude": -26.3054,
    "longitude": 31.1367,
    "continent": "Africa",
    "population": 1210822,
    "area": 17364.0
  },
  {
    "name": "Ethiopia",
    "alpha2": "ET",
    "alpha3": "ETH",
    "capital": "Addis Ababa",
    "latitude": 9.0250,
    "longitude": 38.7469,
    "continent": "Africa",
    "population": 126527060,
    "area": 1104300.0
  },
  {
    "name": "Fiji",
    "alpha2": "FJ",
    "alpha3": "FJI",
    "capital": "Suva",
    "latitude": -18.1416,
    "longitude": 178.4419,
    "continent": "Oceania",
    "population": 936375,
    "area": 18274.0
  },
  {
    "name": "Finland",
    "alpha2": "FI",
    "alpha3": "FIN",
    "capital": "Helsinki",
    "latitude": 60.1699,
    "longitude": 24.9384,
    "continent": "Europe",
    "population": 5541017,
    "area": 338424.0
  },
  {
    "name": "France",
    "alpha2": "FR",
    "alpha3": "FRA",
    "capital": "Paris",
    "latitude": 48.8566,
    "longitude": 2.3522,
    "continent": "Europe",
    "population": 68170228,
    "area": 643801.0
  },
  {
    "name": "Gabon",
    "alpha2": "GA",
    "alpha3": "GAB",
    "capital": "Libreville",
    "latitude": 0.4162,
    "longitude": 9.4673,
    "continent": "Africa",
    "population": 2436566,
    "area": 267668.0
  },
  {
    "name": "Gambia",
    "alpha2": "GM",
    "alpha3": "GMB",
    "capital": "Banjul",
    "latitude": 13.4549,
    "longitude": -16.5790,
    "continent": "Africa",
    "population": 2705992,
    "area": 11295.0
  },
  {
    "name": "Georgia",
    "alpha2": "GE",
    "alpha3": "GEO",
    "capital": "Tbilisi",
    "latitude": 41.7151,
    "longitude": 44.8271,
    "continent": "Asia",
    "population": 3728573,
    "area": 69700.0
  },
  {
    "name": "Germany",
    "alpha2": "DE",
    "alpha3": "DEU",
    "capital": "Berlin",
    "latitude": 52.5200,
    "longitude": 13.4050,
    "continent": "Europe",
    "population": 84482267,
    "area": 357114.0
  },
  {
    "name": "Ghana",
    "alpha2": "GH",
    "alpha3": "GHA",
    "capital": "Accra",
    "latitude": 5.6037,
    "longitude": -0.1870,
    "continent": "Africa",
    "population": 33475870,
    "area": 238533.0
  },
  {
    "name": "Greece",
    "alpha2": "GR",
    "alpha3": "GRC",
    "capital": "Athens",
    "latitude": 37.9838,
    "longitude": 23.7275,
    "continent": "Europe",
    "population": 10341277,
    "area": 131957.0
  },
  {
    "name": "Grenada",
    "alpha2": "GD",
    "alpha3": "GRD",
    "capital": "St. George's",
    "latitude": 12.0564,
    "longitude": -61.7485,
    "continent": "North America",
    "population": 125438,
    "area": 344.0
  },
  {
    "name": "Guatemala",
    "alpha2": "GT",
    "alpha3": "GTM",
    "capital": "Guatemala City",
    "latitude": 14.6349,
    "longitude": -90.5069,
    "continent": "North America",
    "population": 18092026,
    "area": 108889.0
  },
  {
    "name": "Guinea",
    "alpha2": "GN",
    "alpha3": "GIN",
    "capital": "Conakry",
    "latitude": 9.6412,
    "longitude": -13.5784,
    "continent": "Africa",
    "population": 14190612,
    "area": 245857.0
  },
  {
    "name": "Guinea-Bissau",
    "alpha2": "GW",
    "alpha3": "GNB",
    "capital": "Bissau",
    "latitude": 11.8816,
    "longitude": -15.6178,
    "continent": "Africa",
    "population": 2150842,
    "area": 36125.0
  },
  {
    "name": "Guyana",
    "alpha2": "GY",
    "alpha3": "GUY",
    "capital": "Georgetown",
    "latitude": 6.8013,
    "longitude": -58.1551,
    "continent": "South America",
    "population": 813834,
    "area": 214969.0
  },
  {
    "name": "Haiti",
    "alpha2": "HT",
    "alpha3": "HTI",
    "capital": "Port-au-Prince",
    "latitude": 18.5944,
    "longitude": -72.3074,
    "continent": "North America",
    "population": 11724763,
    "area": 27750.0
  },
  {
    "name": "Honduras",
    "alpha2": "HN",
    "alpha3": "HND",
    "capital": "Tegucigalpa",
    "latitude": 14.0723,
    "longitude": -87.1921,
    "continent": "North America",
    "population": 10432860,
    "area": 112492.0
  },
  {
    "name": "Hungary",
    "alpha2": "HU",
    "alpha3": "HUN",
    "capital": "Budapest",
    "latitude": 47.4979,
    "longitude": 19.0402,
    "continent": "Europe",
    "population": 9597085,
    "area": 93028.0
  },
  {
    "name": "Iceland",
    "alpha2": "IS",
    "alpha3": "ISL",
    "capital": "Reykjavik",
    "latitude": 64.1466,
    "longitude": -21.9426,
    "continent": "Europe",
    "population": 383726,
    "area": 103000.0
  },
  {
    "name": "India",
    "alpha2": "IN",
    "alpha3": "IND",
    "capital": "New Delhi",
    "latitude": 28.6139,
    "longitude": 77.2090,
    "continent": "Asia",
    "population": 1428627663,
    "area": 3287263.0
  },
  {
    "name": "Indonesia",
    "alpha2": "ID",
    "alpha3": "IDN",
    "capital": "Jakarta",
    "latitude": -6.2088,
    "longitude": 106.8456,
    "continent": "Asia",
    "population": 277534122,
    "area": 1904569.0
  },
  {
    "name": "Iran",
    "alpha2": "IR",
    "alpha3": "IRN",
    "capital": "Tehran",
    "latitude": 35.6892,
    "longitude": 51.3890,
    "continent": "Asia",
    "population": 89172767,
    "area": 1648195.0
  },
  {
    "name": "Iraq",
    "alpha2": "IQ",
    "alpha3": "IRQ",
    "capital": "Baghdad",
    "latitude": 33.3152,
    "longitude": 44.3661,
    "continent": "Asia",
    "population": 45504560,
    "area": 438317.0
  },
  {
    "name": "Ireland",
    "alpha2": "IE",
    "alpha3": "IRL",
    "capital": "Dublin",
    "latitude": 53.3498,
    "longitude": -6.2603,
    "continent": "Europe",
    "population": 5149139,
    "area": 70273.0
  },
  {
    "name": "Israel",
    "alpha2": "IL",
    "alpha3": "ISR",
    "capital": "Jerusalem",
    "latitude": 31.7683,
    "longitude": 35.2137,
    "continent": "Asia",
    "population": 9364000,
    "area": 20770.0
  },
  {
    "name": "Italy",
    "alpha2": "IT",
    "alpha3": "ITA",
    "capital": "Rome",
    "latitude": 41.9028,
    "longitude": 12.4964,
    "continent": "Europe",
    "population": 58870762,
    "area": 301340.0
  },
  {
    "name": "Ivory Coast",
    "alpha2": "CI",
    "alpha3": "CIV",
    "capital": "Yamoussoukro",
    "latitude": 6.8276,
    "longitude": -5.2893,
    "continent": "Africa",
    "population": 28873034,
    "area": 322463.0
  },
  {
    "name": "Jamaica",
    "alpha2": "JM",
    "alpha3": "JAM",
    "capital": "Kingston",
    "latitude": 18.0179,
    "longitude": -76.8099,
    "continent": "North America",
    "population": 2825544,
    "area": 10991.0
  },
  {
    "name": "Japan",
    "alpha2": "JP",
    "alpha3": "JPN",
    "capital": "Tokyo",
    "latitude": 35.6762,
    "longitude": 139.6503,
    "continent": "Asia",
    "population": 123294513,
    "area": 377975.0
  },
  {
    "name": "Jordan",
    "alpha2": "JO",
    "alpha3": "JOR",
    "capital": "Amman",
    "latitude": 31.9454,
    "longitude": 35.9284,
    "continent": "Asia",
    "population": 11337052,
    "area": 89342.0
  },
  {
    "name": "Kazakhstan",
    "alpha2": "KZ",
    "alpha3": "KAZ",
    "capital": "Astana",
    "latitude": 51.1694,
    "longitude": 71.4491,
    "continent": "Asia",
    "population": 19606633,
    "area": 2724900.0
  },
  {
    "name": "Kenya",
    "alpha2": "KE",
    "alpha3": "KEN",
    "capital": "Nairobi",
    "latitude": -1.2921,
    "longitude": 36.8219,
    "continent": "Africa",
    "population": 55100586,
    "area": 580367.0
  },
  {
    "name": "Kiribati",
    "alpha2": "KI",
    "alpha3": "KIR",
    "capital": "Tarawa",
    "latitude": 1.4518,
    "longitude": 172.9717,
    "continent": "Oceania",
    "population": 131232,
    "area": 811.0
  },
  {
    "name": "Kuwait",
    "alpha2": "KW",
    "alpha3": "KWT",
    "capital": "Kuwait City",
    "latitude": 29.3759,
    "longitude": 47.9774,
    "continent": "Asia",
    "population": 4310108,
    "area": 17818.0
  },
  {
    "name": "Kyrgyzstan",
    "alpha2": "KG",
    "alpha3": "KGZ",
    "capital": "Bishkek",
    "latitude": 42.8746,
    "longitude": 74.5698,
    "continent": "Asia",
    "population": 7037733,
    "area": 199951.0
  },
  {
    "name": "Laos",
    "alpha2": "LA",
    "alpha3": "LAO",
    "capital": "Vientiane",
    "latitude": 17.9757,
    "longitude": 102.6331,
    "continent": "Asia",
    "population": 7633779,
    "area": 236800.0
  },
  {
    "name": "Latvia",
    "alpha2": "LV",
    "alpha3": "LVA",
    "capital": "Riga",
    "latitude": 56.9496,
    "longitude": 24.1052,
    "continent": "Europe",
    "population": 1830211,
    "area": 64559.0
  },
  {
    "name": "Lebanon",
    "alpha2": "LB",
    "alpha3": "LBN",
    "capital": "Beirut",
    "latitude": 33.8938,
    "longitude": 35.5018,
    "continent": "Asia",
    "population": 5489739,
    "area": 10452.0
  },
  {
    "name": "Lesotho",
    "alpha2": "LS",
    "alpha3": "LSO",
    "capital": "Maseru",
    "latitude": -29.3167,
    "longitude": 27.4833,
    "continent": "Africa",
    "population": 2330318,
    "area": 30355.0
  },
  {
    "name": "Liberia",
    "alpha2": "LR",
    "alpha3": "LBR",
    "capital": "Monrovia",
    "latitude": 6.2907,
    "longitude": -10.7605,
    "continent": "Africa",
    "population": 5418377,
    "area": 111369.0
  },
  {
    "name": "Libya",
    "alpha2": "LY",
    "alpha3": "LBY",
    "capital": "Tripoli",
    "latitude": 32.8872,
    "longitude": 13.1913,
    "continent": "Africa",
    "population": 7137931,
    "area": 1759540.0
  },
  {
    "name": "Liechtenstein",
    "alpha2": "LI",
    "alpha3": "LIE",
    "capital": "Vaduz",
    "latitude": 47.1410,
    "longitude": 9.5209,
    "continent": "Europe",
    "population": 39584,
    "area": 160.0
  },
  {
    "name": "Lithuania",
    "alpha2": "LT",
    "alpha3": "LTU",
    "capital": "Vilnius",
    "latitude": 54.6872,
    "longitude": 25.2797,
    "continent": "Europe",
    "population": 2718352,
    "area": 65300.0
  },
  {
    "name": "Luxembourg",
    "alpha2": "LU",
    "alpha3": "LUX",
    "capital": "Luxembourg City",
    "latitude": 49.6116,
    "longitude": 6.1319,
    "continent": "Europe",
    "population": 660809,
    "area": 2586.0
  },
  {
    "name": "Madagascar",
    "alpha2": "MG",
    "alpha3": "MDG",
    "capital": "Antananarivo",
    "latitude": -18.8792,
    "longitude": 47.5079,
    "continent": "Africa",
    "population": 30325732,
    "area": 587041.0
  },
  {
    "name": "Malawi",
    "alpha2": "MW",
    "alpha3": "MWI",
    "capital": "Lilongwe",
    "latitude": -13.9626,
    "longitude": 33.7741,
    "continent": "Africa",
    "population": 20931751,
    "area": 118484.0
  },
  {
    "name": "Malaysia",
    "alpha2": "MY",
    "alpha3": "MYS",
    "capital": "Kuala Lumpur",
    "latitude": 3.1390,
    "longitude": 101.6869,
    "continent": "Asia",
    "population": 34308525,
    "area": 329847.0
  },
  {
    "name": "Maldives",
    "alpha2": "MV",
    "alpha3": "MDV",
    "capital": "Male",
    "latitude": 4.1755,
    "longitude": 73.5093,
    "continent": "Asia",
    "population": 521021,
    "area": 300.0
  },
  {
    "name": "Mali",
    "alpha2": "ML",
    "alpha3": "MLI",
    "capital": "Bamako",
    "latitude": 12.6392,
    "longitude": -8.0029,
    "continent": "Africa",
    "population": 22593590,
    "area": 1240192.0
  },
  {
    "name": "Malta",
    "alpha2": "MT",
    "alpha3": "MLT",
    "capital": "Valletta",
    "latitude": 35.8989,
    "longitude": 14.5146,
    "continent": "Europe",
    "population": 535064,
    "area": 316.0
  },
  {
    "name": "Marshall Islands",
    "alpha2": "MH",
    "alpha3": "MHL",
    "capital": "Majuro",
    "latitude": 7.1164,
    "longitude": 171.1858,
    "continent": "Oceania",
    "population": 41569,
    "area": 181.0
  },
  {
    "name": "Mauritania",
    "alpha2": "MR",
    "alpha3": "MRT",
    "capital": "Nouakchott",
    "latitude": 18.0735,
    "longitude": -15.9582,
    "continent": "Africa",
    "population": 4862989,
    "area": 1030700.0
  },
  {
    "name": "Mauritius",
    "alpha2": "MU",
    "alpha3": "MUS",
    "capital": "Port Louis",
    "latitude": -20.1609,
    "longitude": 57.5012,
    "continent": "Africa",
    "population": 1300557,
    "area": 2040.0
  },
  {
    "name": "Mexico",
    "alpha2": "MX",
    "alpha3": "MEX",
    "capital": "Mexico City",
    "latitude": 19.4326,
    "longitude": -99.1332,
    "continent": "North America",
    "population": 128901188,
    "area": 1964375.0
  },
  {
    "name": "Micronesia",
    "alpha2": "FM",
    "alpha3": "FSM",
    "capital": "Palikir",
    "latitude": 6.9248,
    "longitude": 158.1610,
    "continent": "Oceania",
    "population": 115021,
    "area": 702.0
  },
  {
    "name": "Moldova",
    "alpha2": "MD",
    "alpha3": "MDA",
    "capital": "Chisinau",
    "latitude": 47.0105,
    "longitude": 28.8638,
    "continent": "Europe",
    "population": 2512758,
    "area": 33846.0
  },
  {
    "name": "Monaco",
    "alpha2": "MC",
    "alpha3": "MCO",
    "capital": "Monaco",
    "latitude": 43.7384,
    "longitude": 7.4246,
    "continent": "Europe",
    "population": 39244,
    "area": 2.02
  },
  {
    "name": "Mongolia",
    "alpha2": "MN",
    "alpha3": "MNG",
    "capital": "Ulaanbaatar",
    "latitude": 47.8864,
    "longitude": 106.9057,
    "continent": "Asia",
    "population": 3447157,
    "area": 1564116.0
  },
  {
    "name": "Montenegro",
    "alpha2": "ME",
    "alpha3": "MNE",
    "capital": "Podgorica",
    "latitude": 42.4304,
    "longitude": 19.2594,
    "continent": "Europe",
    "population": 616177,
    "area": 13812.0
  },
  {
    "name": "Morocco",
    "alpha2": "MA",
    "alpha3": "MAR",
    "capital": "Rabat",
    "latitude": 34.0209,
    "longitude": -6.8416,
    "continent": "Africa",
    "population": 37457971,
    "area": 446550.0
  },
  {
    "name": "Mozambique",
    "alpha2": "MZ",
    "alpha3": "MOZ",
    "capital": "Maputo",
    "latitude": -25.9692,
    "longitude": 32.5732,
    "continent": "Africa",
    "population": 33897354,
    "area": 801590.0
  },
  {
    "name": "Myanmar",
    "alpha2": "MM",
    "alpha3": "MMR",
    "capital": "Naypyidaw",
    "latitude": 19.7633,
    "longitude": 96.0785,
    "continent": "Asia",
    "population": 54179306,
    "area": 676578.0
  },
  {
    "name": "Namibia",
    "alpha2": "NA",
    "alpha3": "NAM",
    "capital": "Windhoek",
    "latitude": -22.5609,
    "longitude": 17.0658,
    "continent": "Africa",
    "population": 2604172,
    "area": 824292.0
  },
  {
    "name": "Nauru",
    "alpha2": "NR",
    "alpha3": "NRU",
    "capital": "Yaren",
    "latitude": -0.5477,
    "longitude": 166.9209,
    "continent": "Oceania",
    "population": 12780,
    "area": 21.0
  },
  {
    "name": "Nepal",
    "alpha2": "NP",
    "alpha3": "NPL",
    "capital": "Kathmandu",
    "latitude": 27.7172,
    "longitude": 85.3240,
    "continent": "Asia",
    "population": 30896590,
    "area": 147181.0
  },
  {
    "name": "Netherlands",
    "alpha2": "NL",
    "alpha3": "NLD",
    "capital": "Amsterdam",
    "latitude": 52.3676,
    "longitude": 4.9041,
    "continent": "Europe",
    "population": 17618299,
    "area": 41543.0
  },
  {
    "name": "New Zealand",
    "alpha2": "NZ",
    "alpha3": "NZL",
    "capital": "Wellington",
    "latitude": -41.2865,
    "longitude": 174.7762,
    "continent": "Oceania",
    "population": 5228100,
    "area": 270467.0
  },
  {
    "name": "Nicaragua",
    "alpha2": "NI",
    "alpha3": "NIC",
    "capital": "Managua",
    "latitude": 12.1150,
    "longitude": -86.2362,
    "continent": "North America",
    "population": 6946726,
    "area": 130373.0
  },
  {
    "name": "Niger",
    "alpha2": "NE",
    "alpha3": "NER",
    "capital": "Niamey",
    "latitude": 13.5127,
    "longitude": 2.1128,
    "continent": "Africa",
    "population": 27202843,
    "area": 1267000.0
  },
  {
    "name": "Nigeria",
    "alpha2": "NG",
    "alpha3": "NGA",
    "capital": "Abuja",
    "latitude": 9.0765,
    "longitude": 7.3986,
    "continent": "Africa",
    "population": 223804632,
    "area": 923768.0
  },
  {
    "name": "North Korea",
    "alpha2": "KP",
    "alpha3": "PRK",
    "capital": "Pyongyang",
    "latitude": 39.0392,
    "longitude": 125.7625,
    "continent": "Asia",
    "population": 26160821,
    "area": 120538.0
  },
  {
    "name": "North Macedonia",
    "alpha2": "MK",
    "alpha3": "MKD",
    "capital": "Skopje",
    "latitude": 41.9973,
    "longitude": 21.4280,
    "continent": "Europe",
    "population": 1836713,
    "area": 25713.0
  },
  {
    "name": "Norway",
    "alpha2": "NO",
    "alpha3": "NOR",
    "capital": "Oslo",
    "latitude": 59.9139,
    "longitude": 10.7522,
    "continent": "Europe",
    "population": 5474360,
    "area": 323802.0
  },
  {
    "name": "Oman",
    "alpha2": "OM",
    "alpha3": "OMN",
    "capital": "Muscat",
    "latitude": 23.5880,
    "longitude": 58.3829,
    "continent": "Asia",
    "population": 4644384,
    "area": 309500.0
  },
  {
    "name": "Pakistan",
    "alpha2": "PK",
    "alpha3": "PAK",
    "capital": "Islamabad",
    "latitude": 33.6844,
    "longitude": 73.0479,
    "continent": "Asia",
    "population": 231402117,
    "area": 881913.0
  },
  {
    "name": "Palau",
    "alpha2": "PW",
    "alpha3": "PLW",
    "capital": "Ngerulmud",
    "latitude": 7.5006,
    "longitude": 134.6242,
    "continent": "Oceania",
    "population": 18169,
    "area": 459.0
  },
  {
    "name": "Palestine",
    "alpha2": "PS",
    "alpha3": "PSE",
    "capital": "Ramallah",
    "latitude": 31.9038,
    "longitude": 35.2034,
    "continent": "Asia",
    "population": 5483450,
    "area": 6020.0
  },
  {
    "name": "Panama",
    "alpha2": "PA",
    "alpha3": "PAN",
    "capital": "Panama City",
    "latitude": 8.9824,
    "longitude": -79.5199,
    "continent": "North America",
    "population": 4408581,
    "area": 75417.0
  },
  {
    "name": "Papua New Guinea",
    "alpha2": "PG",
    "alpha3": "PNG",
    "capital": "Port Moresby",
    "latitude": -9.4438,
    "longitude": 147.1803,
    "continent": "Oceania",
    "population": 10329931,
    "area": 462840.0
  },
  {
    "name": "Paraguay",
    "alpha2": "PY",
    "alpha3": "PRY",
    "capital": "Asuncion",
    "latitude": -25.2637,
    "longitude": -57.5759,
    "continent": "South America",
    "population": 6861524,
    "area": 406752.0
  },
  {
    "name": "Peru",
    "alpha2": "PE",
    "alpha3": "PER",
    "capital": "Lima",
    "latitude": -12.0464,
    "longitude": -77.0428,
    "continent": "South America",
    "population": 34352719,
    "area": 1285216.0
  },
  {
    "name": "Philippines",
    "alpha2": "PH",
    "alpha3": "PHL",
    "capital": "Manila",
    "latitude": 14.5995,
    "longitude": 120.9842,
    "continent": "Asia",
    "population": 117337368,
    "area": 300000.0
  },
  {
    "name": "Poland",
    "alpha2": "PL",
    "alpha3": "POL",
    "capital": "Warsaw",
    "latitude": 52.2297,
    "longitude": 21.0122,
    "continent": "Europe",
    "population": 36753736,
    "area": 312696.0
  },
  {
    "name": "Portugal",
    "alpha2": "PT",
    "alpha3": "PRT",
    "capital": "Lisbon",
    "latitude": 38.7223,
    "longitude": -9.1393,
    "continent": "Europe",
    "population": 10247605,
    "area": 92212.0
  },
  {
    "name": "Qatar",
    "alpha2": "QA",
    "alpha3": "QAT",
    "capital": "Doha",
    "latitude": 25.2854,
    "longitude": 51.5310,
    "continent": "Asia",
    "population": 2695122,
    "area": 11586.0
  },
  {
    "name": "Romania",
    "alpha2": "RO",
    "alpha3": "ROU",
    "capital": "Bucharest",
    "latitude": 44.4268,
    "longitude": 26.1025,
    "continent": "Europe",
    "population": 19015080,
    "area": 238391.0
  },
  {
    "name": "Russia",
    "alpha2": "RU",
    "alpha3": "RUS",
    "capital": "Moscow",
    "latitude": 55.7558,
    "longitude": 37.6173,
    "continent": "Europe",
    "population": 144236933,
    "area": 17098242.0
  },
  {
    "name": "Rwanda",
    "alpha2": "RW",
    "alpha3": "RWA",
    "capital": "Kigali",
    "latitude": -1.9403,
    "longitude": 29.8739,
    "continent": "Africa",
    "population": 14094683,
    "area": 26338.0
  },
  {
    "name": "Saint Kitts and Nevis",
    "alpha2": "KN",
    "alpha3": "KNA",
    "capital": "Basseterre",
    "latitude": 17.3026,
    "longitude": -62.7177,
    "continent": "North America",
    "population": 47755,
    "area": 261.0
  },
  {
    "name": "Saint Lucia",
    "alpha2": "LC",
    "alpha3": "LCA",
    "capital": "Castries",
    "latitude": 14.0101,
    "longitude": -60.9875,
    "continent": "North America",
    "population": 180251,
    "area": 616.0
  },
  {
    "name": "Saint Vincent and the Grenadines",
    "alpha2": "VC",
    "alpha3": "VCT",
    "capital": "Kingstown",
    "latitude": 13.1587,
    "longitude": -61.2248,
    "continent": "North America",
    "population": 103698,
    "area": 389.0
  },
  {
    "name": "Samoa",
    "alpha2": "WS",
    "alpha3": "WSM",
    "capital": "Apia",
    "latitude": -13.8333,
    "longitude": -171.7500,
    "continent": "Oceania",
    "population": 225681,
    "area": 2842.0
  },
  {
    "name": "San Marino",
    "alpha2": "SM",
    "alpha3": "SMR",
    "capital": "San Marino",
    "latitude": 43.9424,
    "longitude": 12.4578,
    "continent": "Europe",
    "population": 33642,
    "area": 61.0
  },
  {
    "name": "Sao Tome and Principe",
    "alpha2": "ST",
    "alpha3": "STP",
    "capital": "Sao Tome",
    "latitude": 0.1864,
    "longitude": 6.6131,
    "continent": "Africa",
    "population": 227380,
    "area": 964.0
  },
  {
    "name": "Saudi Arabia",
    "alpha2": "SA",
    "alpha3": "SAU",
    "capital": "Riyadh",
    "latitude": 24.7136,
    "longitude": 46.6753,
    "continent": "Asia",
    "population": 36947025,
    "area": 2149690.0
  },
  {
    "name": "Senegal",
    "alpha2": "SN",
    "alpha3": "SEN",
    "capital": "Dakar",
    "latitude": 14.7167,
    "longitude": -17.4677,
    "continent": "Africa",
    "population": 17763163,
    "area": 196722.0
  },
  {
    "name": "Serbia",
    "alpha2": "RS",
    "alpha3": "SRB",
    "capital": "Belgrade",
    "latitude": 44.7866,
    "longitude": 20.4489,
    "continent": "Europe",
    "population": 6641197,
    "area": 88361.0
  },
  {
    "name": "Seychelles",
    "alpha2": "SC",
    "alpha3": "SYC",
    "capital": "Victoria",
    "latitude": -4.6191,
    "longitude": 55.4513,
    "continent": "Africa",
    "population": 107660,
    "area": 459.0
  },
  {
    "name": "Sierra Leone",
    "alpha2": "SL",
    "alpha3": "SLE",
    "capital": "Freetown",
    "latitude": 8.4657,
    "longitude": -13.2317,
    "continent": "Africa",
    "population": 8791092,
    "area": 71740.0
  },
  {
    "name": "Singapore",
    "alpha2": "SG",
    "alpha3": "SGP",
    "capital": "Singapore",
    "latitude": 1.3521,
    "longitude": 103.8198,
    "continent": "Asia",
    "population": 5917648,
    "area": 733.0
  },
  {
    "name": "Slovakia",
    "alpha2": "SK",
    "alpha3": "SVK",
    "capital": "Bratislava",
    "latitude": 48.1486,
    "longitude": 17.1077,
    "continent": "Europe",
    "population": 5428792,
    "area": 49035.0
  },
  {
    "name": "Slovenia",
    "alpha2": "SI",
    "alpha3": "SVN",
    "capital": "Ljubljana",
    "latitude": 46.0569,
    "longitude": 14.5058,
    "continent": "Europe",
    "population": 2116972,
    "area": 20273.0
  },
  {
    "name": "Solomon Islands",
    "alpha2": "SB",
    "alpha3": "SLB",
    "capital": "Honiara",
    "latitude": -9.4456,
    "longitude": 159.9729,
    "continent": "Oceania",
    "population": 740424,
    "area": 28896.0
  },
  {
    "name": "Somalia",
    "alpha2": "SO",
    "alpha3": "SOM",
    "capital": "Mogadishu",
    "latitude": 2.0469,
    "longitude": 45.3182,
    "continent": "Africa",
    "population": 18143378,
    "area": 637657.0
  },
  {
    "name": "South Africa",
    "alpha2": "ZA",
    "alpha3": "ZAF",
    "capital": "Pretoria",
    "latitude": -25.7479,
    "longitude": 28.2293,
    "continent": "Africa",
    "population": 60414495,
    "area": 1221037.0
  },
  {
    "name": "South Korea",
    "alpha2": "KR",
    "alpha3": "KOR",
    "capital": "Seoul",
    "latitude": 37.5665,
    "longitude": 126.9780,
    "continent": "Asia",
    "population": 51712619,
    "area": 100210.0
  },
  {
    "name": "South Sudan",
    "alpha2": "SS",
    "alpha3": "SSD",
    "capital": "Juba",
    "latitude": 4.8594,
    "longitude": 31.5713,
    "continent": "Africa",
    "population": 11088796,
    "area": 619745.0
  },
  {
    "name": "Spain",
    "alpha2": "ES",
    "alpha3": "ESP",
    "capital": "Madrid",
    "latitude": 40.4168,
    "longitude": -3.7038,
    "continent": "Europe",
    "population": 47519628,
    "area": 505992.0
  },
  {
    "name": "Sri Lanka",
    "alpha2": "LK",
    "alpha3": "LKA",
    "capital": "Sri Jayawardenepura Kotte",
    "latitude": 6.9271,
    "longitude": 79.8612,
    "continent": "Asia",
    "population": 21919000,
    "area": 65610.0
  },
  {
    "name": "Sudan",
    "alpha2": "SD",
    "alpha3": "SDN",
    "capital": "Khartoum",
    "latitude": 15.5007,
    "longitude": 32.5599,
    "continent": "Africa",
    "population": 48109006,
    "area": 1861484.0
  },
  {
    "name": "Suriname",
    "alpha2": "SR",
    "alpha3": "SUR",
    "capital": "Paramaribo",
    "latitude": 5.8520,
    "longitude": -55.2038,
    "continent": "South America",
    "population": 623236,
    "area": 163820.0
  },
  {
    "name": "Sweden",
    "alpha2": "SE",
    "alpha3": "SWE",
    "capital": "Stockholm",
    "latitude": 59.3293,
    "longitude": 18.0686,
    "continent": "Europe",
    "population": 10551707,
    "area": 450295.0
  },
  {
    "name": "Switzerland",
    "alpha2": "CH",
    "alpha3": "CHE",
    "capital": "Bern",
    "latitude": 46.9480,
    "longitude": 7.4474,
    "continent": "Europe",
    "population": 8796669,
    "area": 41285.0
  },
  {
    "name": "Syria",
    "alpha2": "SY",
    "alpha3": "SYR",
    "capital": "Damascus",
    "latitude": 33.5138,
    "longitude": 36.2765,
    "continent": "Asia",
    "population": 22933531,
    "area": 185180.0
  },
  {
    "name": "Tajikistan",
    "alpha2": "TJ",
    "alpha3": "TJK",
    "capital": "Dushanbe",
    "latitude": 38.5598,
    "longitude": 68.7740,
    "continent": "Asia",
    "population": 10143543,
    "area": 143100.0
  },
  {
    "name": "Tanzania",
    "alpha2": "TZ",
    "alpha3": "TZA",
    "capital": "Dodoma",
    "latitude": -6.1630,
    "longitude": 35.7516,
    "continent": "Africa",
    "population": 65497748,
    "area": 945087.0
  },
  {
    "name": "Thailand",
    "alpha2": "TH",
    "alpha3": "THA",
    "capital": "Bangkok",
    "latitude": 13.7563,
    "longitude": 100.5018,
    "continent": "Asia",
    "population": 71801279,
    "area": 513120.0
  },
  {
    "name": "Togo",
    "alpha2": "TG",
    "alpha3": "TGO",
    "capital": "Lome",
    "latitude": 6.1256,
    "longitude": 1.2254,
    "continent": "Africa",
    "population": 8848699,
    "area": 56785.0
  },
  {
    "name": "Tonga",
    "alpha2": "TO",
    "alpha3": "TON",
    "capital": "Nuku'alofa",
    "latitude": -21.2087,
    "longitude": -175.1982,
    "continent": "Oceania",
    "population": 106858,
    "area": 747.0
  },
  {
    "name": "Trinidad and Tobago",
    "alpha2": "TT",
    "alpha3": "TTO",
    "capital": "Port of Spain",
    "latitude": 10.6596,
    "longitude": -61.5086,
    "continent": "North America",
    "population": 1534937,
    "area": 5130.0
  },
  {
    "name": "Tunisia",
    "alpha2": "TN",
    "alpha3": "TUN",
    "capital": "Tunis",
    "latitude": 36.8065,
    "longitude": 10.1815,
    "continent": "Africa",
    "population": 12458223,
    "area": 163610.0
  },
  {
    "name": "Turkey",
    "alpha2": "TR",
    "alpha3": "TUR",
    "capital": "Ankara",
    "latitude": 39.9334,
    "longitude": 32.8597,
    "continent": "Asia",
    "population": 85279553,
    "area": 783562.0
  },
  {
    "name": "Turkmenistan",
    "alpha2": "TM",
    "alpha3": "TKM",
    "capital": "Ashgabat",
    "latitude": 37.9601,
    "longitude": 58.3261,
    "continent": "Asia",
    "population": 6431229,
    "area": 488100.0
  },
  {
    "name": "Tuvalu",
    "alpha2": "TV",
    "alpha3": "TUV",
    "capital": "Funafuti",
    "latitude": -8.5211,
    "longitude": 179.1962,
    "continent": "Oceania",
    "population": 11312,
    "area": 26.0
  },
  {
    "name": "Uganda",
    "alpha2": "UG",
    "alpha3": "UGA",
    "capital": "Kampala",
    "latitude": 0.3476,
    "longitude": 32.5825,
    "continent": "Africa",
    "population": 48582334,
    "area": 241038.0
  },
  {
    "name": "Ukraine",
    "alpha2": "UA",
    "alpha3": "UKR",
    "capital": "Kyiv",
    "latitude": 50.4501,
    "longitude": 30.5234,
    "continent": "Europe",
    "population": 36744636,
    "area": 603500.0
  },
  {
    "name": "United Arab Emirates",
    "alpha2": "AE",
    "alpha3": "ARE",
    "capital": "Abu Dhabi",
    "latitude": 24.4539,
    "longitude": 54.3773,
    "continent": "Asia",
    "population": 9441129,
    "area": 83600.0
  },
  {
    "name": "United Kingdom",
    "alpha2": "GB",
    "alpha3": "GBR",
    "capital": "London",
    "latitude": 51.5074,
    "longitude": -0.1278,
    "continent": "Europe",
    "population": 67886011,
    "area": 242495.0
  },
  {
    "name": "United States",
    "alpha2": "US",
    "alpha3": "USA",
    "capital": "Washington, D.C.",
    "latitude": 38.9072,
    "longitude": -77.0369,
    "continent": "North America",
    "population": 339996563,
    "area": 9833517.0
  },
  {
    "name": "Uruguay",
    "alpha2": "UY",
    "alpha3": "URY",
    "capital": "Montevideo",
    "latitude": -34.9011,
    "longitude": -56.1645,
    "continent": "South America",
    "population": 3423108,
    "area": 176215.0
  },
  {
    "name": "Uzbekistan",
    "alpha2": "UZ",
    "alpha3": "UZB",
    "capital": "Tashkent",
    "latitude": 41.2995,
    "longitude": 69.2401,
    "continent": "Asia",
    "population": 35163944,
    "area": 447400.0
  },
  {
    "name": "Vanuatu",
    "alpha2": "VU",
    "alpha3": "VUT",
    "capital": "Port Vila",
    "latitude": -17.7334,
    "longitude": 168.3273,
    "continent": "Oceania",
    "population": 326740,
    "area": 12189.0
  },
  {
    "name": "Vatican City",
    "alpha2": "VA",
    "alpha3": "VAT",
    "capital": "Vatican City",
    "latitude": 41.9029,
    "longitude": 12.4534,
    "continent": "Europe",
    "population": 800,
    "area": 0.44
  },
  {
    "name": "Venezuela",
    "alpha2": "VE",
    "alpha3": "VEN",
    "capital": "Caracas",
    "latitude": 10.4806,
    "longitude": -66.9036,
    "continent": "South America",
    "population": 28838499,
    "area": 916445.0
  },
  {
    "name": "Vietnam",
    "alpha2": "VN",
    "alpha3": "VNM",
    "capital": "Hanoi",
    "latitude": 21.0278,
    "longitude": 105.8342,
    "continent": "Asia",
    "population": 99462000,
    "area": 331212.0
  },
  {
    "name": "Yemen",
    "alpha2": "YE",
    "alpha3": "YEM",
    "capital": "Sanaa",
    "latitude": 15.3694,
    "longitude": 44.1910,
    "continent": "Asia",
    "population": 34449825,
    "area": 527968.0
  },
  {
    "name": "Zambia",
    "alpha2": "ZM",
    "alpha3": "ZMB",
    "capital": "Lusaka",
    "latitude": -15.3875,
    "longitude": 28.3228,
    "continent": "Africa",
    "population": 20569737,
    "area": 752612.0
  },
  {
    "name": "Zimbabwe",
    "alpha2": "ZW",
    "alpha3": "ZWE",
    "capital": "Harare",
    "latitude": -17.8292,
    "longitude": 31.0522,
    "continent": "Africa",
    "population": 16665409,
    "area": 390757.0
  }
]
